{
"type": "FeatureCollection",
"crs": { "type": "name", "properties": { "name": "urn:ogc:def:crs:OGC:1.3:CRS84" } },

"features": [
{ "type": "Feature", "properties": { "osm_id": "468769318", "name": "Manaure Balcón del Cesar", "type": "town", "population": 14855 }, "geometry": { "type": "Point", "coordinates": [ -73.027069899999987, 10.3910411, 757.8865356445312 ] } },
{ "type": "Feature", "properties": { "osm_id": "703170190", "name": "La Jagua del Pilar", "type": "town", "population": 3253 }, "geometry": { "type": "Point", "coordinates": [ -73.070995599999975, 10.5102023, 203.64219665527344 ] } },
{ "type": "Feature", "properties": { "osm_id": "703273611", "name": "Vda-Resguardo Caño Padilla", "type": "village", "population": null }, "geometry": { "type": "Point", "coordinates": [ -73.083120099999988, 10.2968203, 1058.419677734375 ] } },
{ "type": "Feature", "properties": { "osm_id": "703273765", "name": "Caracoli Hueco", "type": "hamlet", "population": null }, "geometry": { "type": "Point", "coordinates": [ -73.118906, 10.3043226, 761.9884033203125 ] } },
{ "type": "Feature", "properties": { "osm_id": "703273768", "name": "El Silenio", "type": "hamlet", "population": null }, "geometry": { "type": "Point", "coordinates": [ -73.024731799999984, 10.2916755, 2196.0478515625 ] } },
{ "type": "Feature", "properties": { "osm_id": "703273775", "name": "Los Deseos", "type": "hamlet", "population": null }, "geometry": { "type": "Point", "coordinates": [ -73.093140299999988, 10.3244605, 644.829345703125 ] } },
{ "type": "Feature", "properties": { "osm_id": "703273778", "name": "Tierra Nueva", "type": "hamlet", "population": null }, "geometry": { "type": "Point", "coordinates": [ -73.034950499999979, 10.3170803, 1425.001708984375 ] } },
{ "type": "Feature", "properties": { "osm_id": "703273786", "name": "Bella Vista", "type": "locality", "population": null }, "geometry": { "type": "Point", "coordinates": [ -73.055387899999971, 10.3590905, 745.393310546875 ] } },
{ "type": "Feature", "properties": { "osm_id": "703273788", "name": "La Laguna", "type": "hamlet", "population": null }, "geometry": { "type": "Point", "coordinates": [ -73.029493599999967, 10.3160915, 1401.6741943359375 ] } },
{ "type": "Feature", "properties": { "osm_id": "703378936", "name": "El Canada", "type": "hamlet", "population": null }, "geometry": { "type": "Point", "coordinates": [ -73.026718799999969, 10.367748, 1022.1810302734375 ] } },
{ "type": "Feature", "properties": { "osm_id": "703378938", "name": "Hacienda Casaalegria", "type": "locality", "population": null }, "geometry": { "type": "Point", "coordinates": [ -73.110021599999982, 10.4502935, 163.3650665283203 ] } },
{ "type": "Feature", "properties": { "osm_id": "703378939", "name": "Las Mercedes", "type": "locality", "population": null }, "geometry": { "type": "Point", "coordinates": [ -73.066883899999979, 10.4144418, 524.4241943359375 ] } },
{ "type": "Feature", "properties": { "osm_id": "703378943", "name": "La Sobola", "type": "locality", "population": null }, "geometry": { "type": "Point", "coordinates": [ -73.018061299999985, 10.3776829, 1153.0701904296875 ] } },
{ "type": "Feature", "properties": { "osm_id": "703378944", "name": "Santa Fe", "type": "locality", "population": null }, "geometry": { "type": "Point", "coordinates": [ -73.0133777, 10.4011007, 1147.78662109375 ] } },
{ "type": "Feature", "properties": { "osm_id": "703378946", "name": "Nuevo Predio", "type": "locality", "population": null }, "geometry": { "type": "Point", "coordinates": [ -73.092572599999983, 10.3968429, 472.2911071777344 ] } },
{ "type": "Feature", "properties": { "osm_id": "703378947", "name": "Guajira", "type": "locality", "population": null }, "geometry": { "type": "Point", "coordinates": [ -72.958309199999988, 10.4259556, 2594.83203125 ] } },
{ "type": "Feature", "properties": { "osm_id": "703378948", "name": "La Tamita", "type": "locality", "population": null }, "geometry": { "type": "Point", "coordinates": [ -73.108326399999982, 10.398688, 400.8943176269531 ] } },
{ "type": "Feature", "properties": { "osm_id": "703378949", "name": "La Nueva Estrella", "type": "locality", "population": null }, "geometry": { "type": "Point", "coordinates": [ -73.022035199999976, 10.381373, 912.7207641601562 ] } },
{ "type": "Feature", "properties": { "osm_id": "703378951", "name": "El Plan", "type": "village", "population": null }, "geometry": { "type": "Point", "coordinates": [ -73.039424, 10.4580497, 557.3360595703125 ] } },
{ "type": "Feature", "properties": { "osm_id": "703378953", "name": "El Cielo", "type": "locality", "population": null }, "geometry": { "type": "Point", "coordinates": [ -72.9925146, 10.3991137, 1608.9759521484375 ] } },
{ "type": "Feature", "properties": { "osm_id": "703378956", "name": "La Montaña", "type": "hamlet", "population": null }, "geometry": { "type": "Point", "coordinates": [ -73.112622, 10.4339683, 236.99404907226562 ] } },
{ "type": "Feature", "properties": { "osm_id": "703378958", "name": "La Palma", "type": "locality", "population": null }, "geometry": { "type": "Point", "coordinates": [ -73.122879499999968, 10.4593952, 143.8095703125 ] } },
{ "type": "Feature", "properties": { "osm_id": "703378960", "name": "Las Mercedes", "type": "locality", "population": null }, "geometry": { "type": "Point", "coordinates": [ -73.1182564, 10.5051924, 143.26123046875 ] } },
{ "type": "Feature", "properties": { "osm_id": "703378961", "name": "Hacienda Las Marias", "type": "locality", "population": null }, "geometry": { "type": "Point", "coordinates": [ -73.116667199999966, 10.5106823, 146.28976440429688 ] } },
{ "type": "Feature", "properties": { "osm_id": "703378963", "name": "Hacienda La Cecilia", "type": "locality", "population": null }, "geometry": { "type": "Point", "coordinates": [ -73.112622, 10.5171835, 150.26974487304688 ] } },
{ "type": "Feature", "properties": { "osm_id": "703378965", "name": "Rio Negro", "type": "locality", "population": null }, "geometry": { "type": "Point", "coordinates": [ -72.990619099999989, 10.510107, 811.42919921875 ] } },
{ "type": "Feature", "properties": { "osm_id": "703378966", "name": "Los Magos", "type": "locality", "population": null }, "geometry": { "type": "Point", "coordinates": [ -72.981084, 10.5036058, 939.425537109375 ] } },
{ "type": "Feature", "properties": { "osm_id": "703378969", "name": "La Budita", "type": "locality", "population": null }, "geometry": { "type": "Point", "coordinates": [ -72.9643254, 10.4973935, 1286.346435546875 ] } },
{ "type": "Feature", "properties": { "osm_id": "703378970", "name": "Tierra Nueva", "type": "locality", "population": null }, "geometry": { "type": "Point", "coordinates": [ -72.967648299999979, 10.4829465, 1245.9102783203125 ] } },
{ "type": "Feature", "properties": { "osm_id": "703378972", "name": "La Argentina", "type": "locality", "population": null }, "geometry": { "type": "Point", "coordinates": [ -72.969381899999988, 10.4679215, 1438.7728271484375 ] } },
{ "type": "Feature", "properties": { "osm_id": "703378978", "name": "La Ruanita", "type": "locality", "population": null }, "geometry": { "type": "Point", "coordinates": [ -72.969670799999989, 10.4638763, 1512.287841796875 ] } },
{ "type": "Feature", "properties": { "osm_id": "703378979", "name": "Cesar", "type": "locality", "population": null }, "geometry": { "type": "Point", "coordinates": [ -72.926776, 10.4065914, 2039.8363037109375 ] } },
{ "type": "Feature", "properties": { "osm_id": "703378980", "name": "San Martin", "type": "hamlet", "population": null }, "geometry": { "type": "Point", "coordinates": [ -72.9456789, 10.40252, 1882.43994140625 ] } },
{ "type": "Feature", "properties": { "osm_id": "703378982", "name": "El Pintado", "type": "hamlet", "population": null }, "geometry": { "type": "Point", "coordinates": [ -72.924673799999979, 10.4036554, 1951.1683349609375 ] } },
{ "type": "Feature", "properties": { "osm_id": "703378985", "name": "Puerto Rico", "type": "locality", "population": null }, "geometry": { "type": "Point", "coordinates": [ -72.946122099999982, 10.5093846, 1395.43798828125 ] } },
{ "type": "Feature", "properties": { "osm_id": "703378986", "name": "La Arcadia", "type": "locality", "population": null }, "geometry": { "type": "Point", "coordinates": [ -72.935864699999982, 10.5017277, 1830.9498291015625 ] } },
{ "type": "Feature", "properties": { "osm_id": "703378987", "name": "Los Garabatos", "type": "locality", "population": null }, "geometry": { "type": "Point", "coordinates": [ -72.936731499999979, 10.5265767, 1617.820556640625 ] } },
{ "type": "Feature", "properties": { "osm_id": "703378989", "name": "Santana", "type": "locality", "population": null }, "geometry": { "type": "Point", "coordinates": [ -72.933264199999982, 10.4644542, 1687.7242431640625 ] } },
{ "type": "Feature", "properties": { "osm_id": "703378990", "name": "Nueva Idea", "type": "locality", "population": null }, "geometry": { "type": "Point", "coordinates": [ -72.944099499999979, 10.468066, 1642.5863037109375 ] } },
{ "type": "Feature", "properties": { "osm_id": "1184555661", "name": "Resguardo indígena La Laguna", "type": "village", "population": null }, "geometry": { "type": "Point", "coordinates": [ -73.0276838, 10.3083374, 1710.653076171875 ] } },
{ "type": "Feature", "properties": { "osm_id": "2292338307", "name": "San José del Oriente", "type": "village", "population": null }, "geometry": { "type": "Point", "coordinates": [ -73.044403399999979, 10.3506951, 741.1632690429688 ] } },
{ "type": "Feature", "properties": { "osm_id": "3436479985", "name": null, "type": "hamlet", "population": null }, "geometry": { "type": "Point", "coordinates": [ -73.0008688, 10.2933213, 1614.745361328125 ] } }
]
}
