{
"type": "FeatureCollection",
"crs": { "type": "name", "properties": { "name": "urn:ogc:def:crs:OGC:1.3:CRS84" } },

"features": [
{ "type": "Feature", "properties": { "osm_id": "468769318", "name": "Manaure Balcón del Cesar", "type": "town", "population": null }, "geometry": { "type": "Point", "coordinates": [ -73.027069899999987, 10.3910411 ] } },
{ "type": "Feature", "properties": { "osm_id": "703170190", "name": "La Jagua del Pilar", "type": "town", "population": null }, "geometry": { "type": "Point", "coordinates": [ -73.070995599999975, 10.5102023 ] } },
{ "type": "Feature", "properties": { "osm_id": "703273611", "name": "Vda-Resguardo Caño Padilla", "type": "village", "population": null }, "geometry": { "type": "Point", "coordinates": [ -73.083120099999988, 10.2968203 ] } },
{ "type": "Feature", "properties": { "osm_id": "703273765", "name": "Caracoli Hueco", "type": "hamlet", "population": null }, "geometry": { "type": "Point", "coordinates": [ -73.118906, 10.3043226 ] } },
{ "type": "Feature", "properties": { "osm_id": "703273768", "name": "El Silenio", "type": "hamlet", "population": null }, "geometry": { "type": "Point", "coordinates": [ -73.024731799999984, 10.2916755 ] } },
{ "type": "Feature", "properties": { "osm_id": "703273775", "name": "Los Deseos", "type": "hamlet", "population": null }, "geometry": { "type": "Point", "coordinates": [ -73.093140299999988, 10.3244605 ] } },
{ "type": "Feature", "properties": { "osm_id": "703273778", "name": "Tierra Nueva", "type": "hamlet", "population": null }, "geometry": { "type": "Point", "coordinates": [ -73.034950499999979, 10.3170803 ] } },
{ "type": "Feature", "properties": { "osm_id": "703273786", "name": "Bella Vista", "type": "locality", "population": null }, "geometry": { "type": "Point", "coordinates": [ -73.055387899999971, 10.3590905 ] } },
{ "type": "Feature", "properties": { "osm_id": "703273788", "name": "La Laguna", "type": "hamlet", "population": null }, "geometry": { "type": "Point", "coordinates": [ -73.029493599999967, 10.3160915 ] } },
{ "type": "Feature", "properties": { "osm_id": "703378936", "name": "El Canada", "type": "hamlet", "population": null }, "geometry": { "type": "Point", "coordinates": [ -73.026718799999969, 10.367748 ] } },
{ "type": "Feature", "properties": { "osm_id": "703378938", "name": "Hacienda Casaalegria", "type": "locality", "population": null }, "geometry": { "type": "Point", "coordinates": [ -73.110021599999982, 10.4502935 ] } },
{ "type": "Feature", "properties": { "osm_id": "703378939", "name": "Las Mercedes", "type": "locality", "population": null }, "geometry": { "type": "Point", "coordinates": [ -73.066883899999979, 10.4144418 ] } },
{ "type": "Feature", "properties": { "osm_id": "703378943", "name": "La Sobola", "type": "locality", "population": null }, "geometry": { "type": "Point", "coordinates": [ -73.018061299999985, 10.3776829 ] } },
{ "type": "Feature", "properties": { "osm_id": "703378944", "name": "Santa Fe", "type": "locality", "population": null }, "geometry": { "type": "Point", "coordinates": [ -73.0133777, 10.4011007 ] } },
{ "type": "Feature", "properties": { "osm_id": "703378946", "name": "Nuevo Predio", "type": "locality", "population": null }, "geometry": { "type": "Point", "coordinates": [ -73.092572599999983, 10.3968429 ] } },
{ "type": "Feature", "properties": { "osm_id": "703378947", "name": "Guajira", "type": "locality", "population": null }, "geometry": { "type": "Point", "coordinates": [ -72.958309199999988, 10.4259556 ] } },
{ "type": "Feature", "properties": { "osm_id": "703378948", "name": "La Tamita", "type": "locality", "population": null }, "geometry": { "type": "Point", "coordinates": [ -73.108326399999982, 10.398688 ] } },
{ "type": "Feature", "properties": { "osm_id": "703378949", "name": "La Nueva Estrella", "type": "locality", "population": null }, "geometry": { "type": "Point", "coordinates": [ -73.022035199999976, 10.381373 ] } },
{ "type": "Feature", "properties": { "osm_id": "703378951", "name": "El Plan", "type": "village", "population": null }, "geometry": { "type": "Point", "coordinates": [ -73.039424, 10.4580497 ] } },
{ "type": "Feature", "properties": { "osm_id": "703378953", "name": "El Cielo", "type": "locality", "population": null }, "geometry": { "type": "Point", "coordinates": [ -72.9925146, 10.3991137 ] } },
{ "type": "Feature", "properties": { "osm_id": "703378956", "name": "La Montaña", "type": "hamlet", "population": null }, "geometry": { "type": "Point", "coordinates": [ -73.112622, 10.4339683 ] } },
{ "type": "Feature", "properties": { "osm_id": "703378958", "name": "La Palma", "type": "locality", "population": null }, "geometry": { "type": "Point", "coordinates": [ -73.122879499999968, 10.4593952 ] } },
{ "type": "Feature", "properties": { "osm_id": "703378960", "name": "Las Mercedes", "type": "locality", "population": null }, "geometry": { "type": "Point", "coordinates": [ -73.1182564, 10.5051924 ] } },
{ "type": "Feature", "properties": { "osm_id": "703378961", "name": "Hacienda Las Marias", "type": "locality", "population": null }, "geometry": { "type": "Point", "coordinates": [ -73.116667199999966, 10.5106823 ] } },
{ "type": "Feature", "properties": { "osm_id": "703378963", "name": "Hacienda La Cecilia", "type": "locality", "population": null }, "geometry": { "type": "Point", "coordinates": [ -73.112622, 10.5171835 ] } },
{ "type": "Feature", "properties": { "osm_id": "703378965", "name": "Rio Negro", "type": "locality", "population": null }, "geometry": { "type": "Point", "coordinates": [ -72.990619099999989, 10.510107 ] } },
{ "type": "Feature", "properties": { "osm_id": "703378966", "name": "Los Magos", "type": "locality", "population": null }, "geometry": { "type": "Point", "coordinates": [ -72.981084, 10.5036058 ] } },
{ "type": "Feature", "properties": { "osm_id": "703378969", "name": "La Budita", "type": "locality", "population": null }, "geometry": { "type": "Point", "coordinates": [ -72.9643254, 10.4973935 ] } },
{ "type": "Feature", "properties": { "osm_id": "703378970", "name": "Tierra Nueva", "type": "locality", "population": null }, "geometry": { "type": "Point", "coordinates": [ -72.967648299999979, 10.4829465 ] } },
{ "type": "Feature", "properties": { "osm_id": "703378972", "name": "La Argentina", "type": "locality", "population": null }, "geometry": { "type": "Point", "coordinates": [ -72.969381899999988, 10.4679215 ] } },
{ "type": "Feature", "properties": { "osm_id": "703378978", "name": "La Ruanita", "type": "locality", "population": null }, "geometry": { "type": "Point", "coordinates": [ -72.969670799999989, 10.4638763 ] } },
{ "type": "Feature", "properties": { "osm_id": "703378979", "name": "Cesar", "type": "locality", "population": null }, "geometry": { "type": "Point", "coordinates": [ -72.926776, 10.4065914 ] } },
{ "type": "Feature", "properties": { "osm_id": "703378980", "name": "San Martin", "type": "hamlet", "population": null }, "geometry": { "type": "Point", "coordinates": [ -72.9456789, 10.40252 ] } },
{ "type": "Feature", "properties": { "osm_id": "703378982", "name": "El Pintado", "type": "hamlet", "population": null }, "geometry": { "type": "Point", "coordinates": [ -72.924673799999979, 10.4036554 ] } },
{ "type": "Feature", "properties": { "osm_id": "703378985", "name": "Puerto Rico", "type": "locality", "population": null }, "geometry": { "type": "Point", "coordinates": [ -72.946122099999982, 10.5093846 ] } },
{ "type": "Feature", "properties": { "osm_id": "703378986", "name": "La Arcadia", "type": "locality", "population": null }, "geometry": { "type": "Point", "coordinates": [ -72.935864699999982, 10.5017277 ] } },
{ "type": "Feature", "properties": { "osm_id": "703378987", "name": "Los Garabatos", "type": "locality", "population": null }, "geometry": { "type": "Point", "coordinates": [ -72.936731499999979, 10.5265767 ] } },
{ "type": "Feature", "properties": { "osm_id": "703378989", "name": "Santana", "type": "locality", "population": null }, "geometry": { "type": "Point", "coordinates": [ -72.933264199999982, 10.4644542 ] } },
{ "type": "Feature", "properties": { "osm_id": "703378990", "name": "Nueva Idea", "type": "locality", "population": null }, "geometry": { "type": "Point", "coordinates": [ -72.944099499999979, 10.468066 ] } },
{ "type": "Feature", "properties": { "osm_id": "1184555661", "name": "Resguardo indígena La Laguna", "type": "village", "population": null }, "geometry": { "type": "Point", "coordinates": [ -73.0276838, 10.3083374 ] } },
{ "type": "Feature", "properties": { "osm_id": "2292338307", "name": "San José del Oriente", "type": "village", "population": null }, "geometry": { "type": "Point", "coordinates": [ -73.044403399999979, 10.3506951 ] } },
{ "type": "Feature", "properties": { "osm_id": "3436479985", "name": null, "type": "hamlet", "population": null }, "geometry": { "type": "Point", "coordinates": [ -73.0008688, 10.2933213 ] } }
]
}
